{
"type": "FeatureCollection",
"name": "settlements_points",
"crs": { "type": "name", "properties": { "name": "urn:ogc:def:crs:OGC:1.3:CRS84" } },
"features": [
{ "type": "Feature", "properties": { "id": "stl_gunsey", "name": "Gunsey", "settlement_type": null, "country_id": "country_velu", "region_id": null, "state_id": null, "capital_status": null, "population": "800", "status": null, "port": false, "wiki_id": null, "label_rank": null, "notes": null, "max_zoom": 8, "min_zoom": 4 }, "geometry": { "type": "Point", "coordinates": [ -3.671682519870166, 29.713566359033063 ] } },
{ "type": "Feature", "properties": { "id": "stl_gategenesis", "name": "Gate Genesis", "settlement_type": null, "country_id": "country_velu", "region_id": null, "state_id": null, "capital_status": null, "population": "1000", "status": null, "port": false, "wiki_id": null, "label_rank": null, "notes": null, "max_zoom": 8, "min_zoom": 4 }, "geometry": { "type": "Point", "coordinates": [ 1.108807465167993, 26.719852118588111 ] } },
{ "type": "Feature", "properties": { "id": "stl_gatethaurin", "name": "Gate Thaurin", "settlement_type": null, "country_id": "country_velu", "region_id": null, "state_id": null, "capital_status": null, "population": "23340", "status": null, "port": false, "wiki_id": null, "label_rank": null, "notes": null, "max_zoom": 8, "min_zoom": 4 }, "geometry": { "type": "Point", "coordinates": [ 2.16, 23.4 ] } },
{ "type": "Feature", "properties": { "id": "stl_bigbay", "name": "Big Bay", "settlement_type": null, "country_id": "country_velu", "region_id": null, "state_id": null, "capital_status": null, "population": "75000", "status": null, "port": false, "wiki_id": null, "label_rank": null, "notes": null, "max_zoom": 8, "min_zoom": 4 }, "geometry": { "type": "Point", "coordinates": [ 35.73, 11.97 ] } },
{ "type": "Feature", "properties": { "id": "stl_gatesmetts", "name": "Gate Smetts", "settlement_type": null, "country_id": "country_velu", "region_id": null, "state_id": null, "capital_status": null, "population": "810", "status": null, "port": false, "wiki_id": null, "label_rank": null, "notes": null, "max_zoom": 8, "min_zoom": 4 }, "geometry": { "type": "Point", "coordinates": [ 7.261459118098261, 16.265 ] } },
{ "type": "Feature", "properties": { "id": "stl_gateyorn", "name": "Gate Yorn", "settlement_type": null, "country_id": "country_velu", "region_id": null, "state_id": null, "capital_status": null, "population": "940", "status": null, "port": false, "wiki_id": null, "label_rank": null, "notes": null, "max_zoom": 8, "min_zoom": 4 }, "geometry": { "type": "Point", "coordinates": [ 12.87, 11.97 ] } },
{ "type": "Feature", "properties": { "id": "stl_gatedorn", "name": "Gate Dorn", "settlement_type": null, "country_id": "country_velu", "region_id": null, "state_id": null, "capital_status": null, "population": "1330", "status": null, "port": false, "wiki_id": null, "label_rank": null, "notes": null, "max_zoom": 8, "min_zoom": 4 }, "geometry": { "type": "Point", "coordinates": [ 15.147474556482615, 7.161725098095358 ] } },
{ "type": "Feature", "properties": { "id": "stl_hawntai", "name": "Hawntai", "settlement_type": null, "country_id": "country_barrel", "region_id": null, "state_id": null, "capital_status": null, "population": "5000", "status": null, "port": false, "wiki_id": null, "label_rank": null, "notes": null, "max_zoom": 8, "min_zoom": 4 }, "geometry": { "type": "Point", "coordinates": [ 21.441604354803363, 2.156705788657485 ] } },
{ "type": "Feature", "properties": { "id": "stl_vir", "name": "Vir", "settlement_type": null, "country_id": null, "region_id": null, "state_id": null, "capital_status": null, "population": "80000", "status": null, "port": false, "wiki_id": null, "label_rank": null, "notes": null, "max_zoom": 8, "min_zoom": 4 }, "geometry": { "type": "Point", "coordinates": [ 21.617368705085621, 5.264960727039944 ] } }
]
}
