{
"type": "FeatureCollection",
"name": "settlements_points",
"crs": { "type": "name", "properties": { "name": "urn:ogc:def:crs:OGC:1.3:CRS84" } },
"features": [
{ "type": "Feature", "properties": { "id": "stl_gunsey", "name": "Gunsey", "settlement_type": null, "country_id": "country_duvessa", "region_id": null, "state_id": null, "capital_status": null, "population": "800", "status": null, "port": false, "wiki_id": null, "label_rank": null, "notes": null, "max_zoom": 8, "min_zoom": 4 }, "geometry": { "type": "Point", "coordinates": [ -3.671682519870166, 29.713566359033063 ] } },
{ "type": "Feature", "properties": { "id": "stl_gategenesis", "name": "Gate Genesis", "settlement_type": null, "country_id": "country_velu", "region_id": null, "state_id": null, "capital_status": null, "population": "1000", "status": null, "port": false, "wiki_id": null, "label_rank": null, "notes": null, "max_zoom": 8, "min_zoom": 4 }, "geometry": { "type": "Point", "coordinates": [ 1.108807465167993, 26.719852118588111 ] } },
{ "type": "Feature", "properties": { "id": "stl_gatethaurin", "name": "Gate Thaurin", "settlement_type": null, "country_id": "country_velu", "region_id": null, "state_id": null, "capital_status": null, "population": "23340", "status": null, "port": false, "wiki_id": null, "label_rank": null, "notes": null, "max_zoom": 8, "min_zoom": 4 }, "geometry": { "type": "Point", "coordinates": [ 2.16, 23.4 ] } },
{ "type": "Feature", "properties": { "id": "stl_bigbay", "name": "Big Bay", "settlement_type": null, "country_id": "country_velu", "region_id": null, "state_id": null, "capital_status": null, "population": "75000", "status": null, "port": false, "wiki_id": null, "label_rank": null, "notes": null, "max_zoom": 8, "min_zoom": 4 }, "geometry": { "type": "Point", "coordinates": [ 35.73, 11.97 ] } },
{ "type": "Feature", "properties": { "id": "stl_gatesmetts", "name": "Gate Smetts", "settlement_type": null, "country_id": "country_velu", "region_id": null, "state_id": null, "capital_status": null, "population": "810", "status": null, "port": false, "wiki_id": null, "label_rank": null, "notes": null, "max_zoom": 8, "min_zoom": 4 }, "geometry": { "type": "Point", "coordinates": [ 7.261459118098261, 16.265 ] } },
{ "type": "Feature", "properties": { "id": "stl_gateyorn", "name": "Gate Yorn", "settlement_type": null, "country_id": "country_velu", "region_id": null, "state_id": null, "capital_status": null, "population": "940", "status": null, "port": false, "wiki_id": null, "label_rank": null, "notes": null, "max_zoom": 8, "min_zoom": 4 }, "geometry": { "type": "Point", "coordinates": [ 12.87, 11.97 ] } },
{ "type": "Feature", "properties": { "id": "stl_gatedorn", "name": "Gate Dorn", "settlement_type": null, "country_id": "country_velu", "region_id": null, "state_id": null, "capital_status": null, "population": "1330", "status": null, "port": false, "wiki_id": null, "label_rank": null, "notes": null, "max_zoom": 8, "min_zoom": 4 }, "geometry": { "type": "Point", "coordinates": [ 15.147474556482615, 7.161725098095358 ] } },
{ "type": "Feature", "properties": { "id": "stl_hawntai", "name": "Hawntai", "settlement_type": null, "country_id": "country_barrel", "region_id": null, "state_id": null, "capital_status": null, "population": "5000", "status": null, "port": false, "wiki_id": null, "label_rank": null, "notes": null, "max_zoom": 8, "min_zoom": 4 }, "geometry": { "type": "Point", "coordinates": [ 21.441604354803363, 2.156705788657485 ] } },
{ "type": "Feature", "properties": { "id": "stl_vir", "name": "Vir", "settlement_type": null, "country_id": null, "region_id": null, "state_id": null, "capital_status": null, "population": "80000", "status": null, "port": false, "wiki_id": null, "label_rank": null, "notes": null, "max_zoom": 8, "min_zoom": 4 }, "geometry": { "type": "Point", "coordinates": [ 21.617368705085621, 5.264960727039944 ] } },
{ "type": "Feature", "properties": { "id": "stl_cote_du_soleil", "name": "Côte du Soleil", "settlement_type": null, "country_id": "country_duvessa", "region_id": null, "state_id": null, "capital_status": null, "population": "1100000", "status": null, "port": false, "wiki_id": null, "label_rank": null, "notes": null, "max_zoom": 8, "min_zoom": 3 }, "geometry": { "type": "Point", "coordinates": [ -22.084523280786325, 11.789356483099064 ] } },
{ "type": "Feature", "properties": { "id": "stl_zayn_al_qamar", "name": "Zayn al-Qamar", "settlement_type": null, "country_id": "country_bibishirif", "region_id": null, "state_id": null, "capital_status": null, "population": "1999900", "status": null, "port": false, "wiki_id": null, "label_rank": null, "notes": null, "max_zoom": 8, "min_zoom": 3 }, "geometry": { "type": "Point", "coordinates": [ -31.308471769598302, -6.419049147833379 ] } },
{ "type": "Feature", "properties": { "id": "stl_henna_city", "name": "Henna City", "settlement_type": null, "country_id": "country_soumoa", "region_id": null, "state_id": null, "capital_status": null, "population": "1150000", "status": null, "port": false, "wiki_id": null, "label_rank": null, "notes": null, "max_zoom": 8, "min_zoom": 3 }, "geometry": { "type": "Point", "coordinates": [ -43.41958231091224, 3.150122870958431 ] } },
{ "type": "Feature", "properties": { "id": "stl_cam_tower", "name": "Cam Tower", "settlement_type": null, "country_id": "country_ronobetu", "region_id": null, "state_id": null, "capital_status": null, "population": "1050000", "status": null, "port": false, "wiki_id": null, "label_rank": null, "notes": null, "max_zoom": 8, "min_zoom": 3 }, "geometry": { "type": "Point", "coordinates": [ -68.166658487297923, -4.819246535796766 ] } },
{ "type": "Feature", "properties": { "id": "stl_qaria", "name": "Qaria", "settlement_type": null, "country_id": "country_landofwater", "region_id": null, "state_id": null, "capital_status": null, "population": "900000", "status": null, "port": false, "wiki_id": null, "label_rank": null, "notes": null, "max_zoom": 8, "min_zoom": 3 }, "geometry": { "type": "Point", "coordinates": [ 35.04867115329094, -24.70892988596998 ] } },
{ "type": "Feature", "properties": { "id": "stl_levilbury", "name": "Levilbury", "settlement_type": null, "country_id": "country_samariland", "region_id": null, "state_id": null, "capital_status": null, "population": "800000", "status": null, "port": false, "wiki_id": null, "label_rank": null, "notes": null, "max_zoom": 8, "min_zoom": 4 }, "geometry": { "type": "Point", "coordinates": [ -24.15, -9.54 ] } },
{ "type": "Feature", "properties": { "id": "stl_portsable", "name": "Port Sable", "settlement_type": null, "country_id": "country_duvessa", "region_id": null, "state_id": null, "capital_status": null, "population": "110000", "status": null, "port": false, "wiki_id": null, "label_rank": null, "notes": null, "max_zoom": 8, "min_zoom": 4 }, "geometry": { "type": "Point", "coordinates": [ -11.946957061508861, 28.755346074062587 ] } },
{ "type": "Feature", "properties": { "id": "stl_portregret", "name": "Port Regret", "settlement_type": null, "country_id": "country_duvessa", "region_id": null, "state_id": null, "capital_status": null, "population": "200", "status": null, "port": false, "wiki_id": null, "label_rank": null, "notes": null, "max_zoom": 8, "min_zoom": 5 }, "geometry": { "type": "Point", "coordinates": [ -17.683832667127724, 21.978093772707574 ] } },
{ "type": "Feature", "properties": { "id": "stl_alonahclif", "name": "Alonah-Clif", "settlement_type": null, "country_id": "country_stsutodo", "region_id": null, "state_id": null, "capital_status": null, "population": "5000", "status": null, "port": false, "wiki_id": null, "label_rank": null, "notes": null, "max_zoom": 8, "min_zoom": 4 }, "geometry": { "type": "Point", "coordinates": [ -64.633747172120195, -19.742049786988126 ] } },
{ "type": "Feature", "properties": { "id": "stl_nee", "name": "Nee", "settlement_type": null, "country_id": "country_nedma", "region_id": null, "state_id": null, "capital_status": null, "population": "80000", "status": null, "port": false, "wiki_id": null, "label_rank": null, "notes": null, "max_zoom": 8, "min_zoom": 4 }, "geometry": { "type": "Point", "coordinates": [ -31.837684714120662, -14.978923850830489 ] } },
{ "type": "Feature", "properties": { "id": "stl_toton", "name": "Toton", "settlement_type": null, "country_id": "country_barrelislands", "region_id": null, "state_id": null, "capital_status": null, "population": "8000", "status": null, "port": false, "wiki_id": null, "label_rank": null, "notes": null, "max_zoom": 8, "min_zoom": 4 }, "geometry": { "type": "Point", "coordinates": [ 0.07, -26.14 ] } },
{ "type": "Feature", "properties": { "id": "stl_vagu", "name": "Vagu", "settlement_type": null, "country_id": "country_barrelislands", "region_id": null, "state_id": null, "capital_status": null, "population": "1000", "status": null, "port": false, "wiki_id": null, "label_rank": null, "notes": null, "max_zoom": 8, "min_zoom": 5 }, "geometry": { "type": "Point", "coordinates": [ -4.25, -29.36 ] } },
{ "type": "Feature", "properties": { "id": "stl_holt", "name": "Holt", "settlement_type": null, "country_id": "country_thornbelt", "region_id": null, "state_id": null, "capital_status": null, "population": "125000", "status": null, "port": false, "wiki_id": null, "label_rank": null, "notes": null, "max_zoom": 8, "min_zoom": 4 }, "geometry": { "type": "Point", "coordinates": [ -51.23, 19.46 ] } },
{ "type": "Feature", "properties": { "id": "stl_northgate1", "name": "North Gate 1", "settlement_type": null, "country_id": "country_thornbelt", "region_id": null, "state_id": null, "capital_status": null, "population": "1700", "status": null, "port": false, "wiki_id": null, "label_rank": null, "notes": null, "max_zoom": 8, "min_zoom": 5 }, "geometry": { "type": "Point", "coordinates": [ -52.71, 19.41 ] } },
{ "type": "Feature", "properties": { "id": "stl_eastgate6", "name": "East Gate 6", "settlement_type": null, "country_id": "country_thornbelt", "region_id": null, "state_id": null, "capital_status": null, "population": "3500", "status": null, "port": false, "wiki_id": null, "label_rank": null, "notes": null, "max_zoom": 8, "min_zoom": 5 }, "geometry": { "type": "Point", "coordinates": [ -49.68, 19.38 ] } },
{ "type": "Feature", "properties": { "id": "stl_eastgate31", "name": "East Gate 31", "settlement_type": null, "country_id": "country_thornbelt", "region_id": null, "state_id": null, "capital_status": null, "population": "250000", "status": null, "port": false, "wiki_id": null, "label_rank": null, "notes": null, "max_zoom": 8, "min_zoom": 4 }, "geometry": { "type": "Point", "coordinates": [ -46.22, 16.13 ] } },
{ "type": "Feature", "properties": { "id": "stl_westgate34", "name": "West Gate 34", "settlement_type": null, "country_id": "country_thornbelt", "region_id": null, "state_id": null, "capital_status": null, "population": "1500", "status": null, "port": false, "wiki_id": null, "label_rank": null, "notes": null, "max_zoom": 8, "min_zoom": 5 }, "geometry": { "type": "Point", "coordinates": [ -55.42, 11.75 ] } },
{ "type": "Feature", "properties": { "id": "stl_westgate43", "name": "West Gate 43", "settlement_type": null, "country_id": "country_thornbelt", "region_id": null, "state_id": null, "capital_status": null, "population": "25000", "status": null, "port": false, "wiki_id": null, "label_rank": null, "notes": null, "max_zoom": 8, "min_zoom": 4 }, "geometry": { "type": "Point", "coordinates": [ -55.4688, 8.6553 ] } },
{ "type": "Feature", "properties": { "id": "stl_byad", "name": "Byad", "settlement_type": null, "country_id": "country_velu", "region_id": null, "state_id": null, "capital_status": null, "population": "55000", "status": null, "port": false, "wiki_id": null, "label_rank": null, "notes": null, "max_zoom": 8, "min_zoom": 4 }, "geometry": { "type": "Point", "coordinates": [ 55.9, 11.81 ] } },
{ "type": "Feature", "properties": { "id": "stl_ureka", "name": "Ureka", "settlement_type": null, "country_id": "country_velu", "region_id": null, "state_id": null, "capital_status": null, "population": "3300", "status": null, "port": false, "wiki_id": null, "label_rank": null, "notes": null, "max_zoom": 8, "min_zoom": 5 }, "geometry": { "type": "Point", "coordinates": [ 54.84, 11.37 ] } },
{ "type": "Feature", "properties": { "id": "stl_sabletown", "name": "Sabletown", "settlement_type": null, "country_id": "country_duvessa", "region_id": null, "state_id": null, "capital_status": null, "population": "7500", "status": null, "port": false, "wiki_id": null, "label_rank": null, "notes": null, "max_zoom": 8, "min_zoom": 5 }, "geometry": { "type": "Point", "coordinates": [ -5.809864214045023, 30.885 ] } },
{ "type": "Feature", "properties": { "id": "stl_saintaveline", "name": "Saint Aveline", "settlement_type": null, "country_id": "country_duvessa", "region_id": null, "state_id": null, "capital_status": null, "population": "750", "status": null, "port": false, "wiki_id": null, "label_rank": null, "notes": null, "max_zoom": 8, "min_zoom": 3 }, "geometry": { "type": "Point", "coordinates": [ -5.6505190354678, 33.9 ] } },
{ "type": "Feature", "properties": { "id": "stl_seshai", "name": "Seshai", "settlement_type": null, "country_id": "country_barrel", "region_id": null, "state_id": null, "capital_status": null, "population": "1800000", "status": null, "port": false, "wiki_id": null, "label_rank": null, "notes": null, "max_zoom": 8, "min_zoom": 3 }, "geometry": { "type": "Point", "coordinates": [ 23.889751173489579, -11.009126703283902 ] } },
{ "type": "Feature", "properties": { "id": "stl_bratai", "name": "Bratai", "settlement_type": null, "country_id": "country_barrel", "region_id": null, "state_id": null, "capital_status": null, "population": "120000", "status": null, "port": false, "wiki_id": null, "label_rank": null, "notes": null, "max_zoom": 8, "min_zoom": 4 }, "geometry": { "type": "Point", "coordinates": [ 26.38, -3.43 ] } },
{ "type": "Feature", "properties": { "id": "stl_rai", "name": "Rai", "settlement_type": null, "country_id": "country_barrel", "region_id": null, "state_id": null, "capital_status": null, "population": "1880", "status": null, "port": false, "wiki_id": null, "label_rank": null, "notes": null, "max_zoom": 8, "min_zoom": 5 }, "geometry": { "type": "Point", "coordinates": [ 30.9227, -10.363 ] } },
{ "type": "Feature", "properties": { "id": "stl_towbolester", "name": "Towbolester", "settlement_type": null, "country_id": "country_barrel", "region_id": null, "state_id": null, "capital_status": null, "population": "20000", "status": null, "port": false, "wiki_id": null, "label_rank": null, "notes": null, "max_zoom": 8, "min_zoom": 4 }, "geometry": { "type": "Point", "coordinates": [ 30.97, -3.46 ] } },
{ "type": "Feature", "properties": { "id": "stl_warlistable", "name": "Warlistable", "settlement_type": null, "country_id": "country_barrel", "region_id": null, "state_id": null, "capital_status": null, "population": "3500", "status": null, "port": false, "wiki_id": null, "label_rank": null, "notes": null, "max_zoom": 8, "min_zoom": 5 }, "geometry": { "type": "Point", "coordinates": [ 32.1912, -4.1706 ] } },
{ "type": "Feature", "properties": { "id": "stl_rangy", "name": "Rangy", "settlement_type": null, "country_id": "country_chatunkut", "region_id": null, "state_id": null, "capital_status": null, "population": "45000", "status": null, "port": false, "wiki_id": null, "label_rank": null, "notes": null, "max_zoom": 8, "min_zoom": 4 }, "geometry": { "type": "Point", "coordinates": [ 36.67, -17.78 ] } },
{ "type": "Feature", "properties": { "id": "stl_colbridge", "name": "Colbridge", "settlement_type": null, "country_id": "country_landofwater", "region_id": null, "state_id": null, "capital_status": null, "population": "14000", "status": null, "port": false, "wiki_id": null, "label_rank": null, "notes": null, "max_zoom": 8, "min_zoom": 4 }, "geometry": { "type": "Point", "coordinates": [ 35.94, -21.47 ] } },
{ "type": "Feature", "properties": { "id": "stl_monstagt", "name": "Monstagt", "settlement_type": null, "country_id": "country_booside", "region_id": null, "state_id": null, "capital_status": null, "population": "23000", "status": null, "port": false, "wiki_id": null, "label_rank": null, "notes": null, "max_zoom": 8, "min_zoom": 4 }, "geometry": { "type": "Point", "coordinates": [ 36.79, -30.07 ] } },
{ "type": "Feature", "properties": { "id": "stl_avelis", "name": "Avelis", "settlement_type": null, "country_id": "country_avelia", "region_id": null, "state_id": null, "capital_status": null, "population": "38491", "status": null, "port": false, "wiki_id": null, "label_rank": null, "notes": null, "max_zoom": 8, "min_zoom": 4 }, "geometry": { "type": "Point", "coordinates": [ 35.9253, -31.0626 ] } },
{ "type": "Feature", "properties": { "id": "stl_dunster", "name": "Dunster", "settlement_type": null, "country_id": "country_landofwater", "region_id": null, "state_id": null, "capital_status": null, "population": "27500", "status": null, "port": false, "wiki_id": null, "label_rank": null, "notes": null, "max_zoom": 8, "min_zoom": 5 }, "geometry": { "type": "Point", "coordinates": [ 40.7, -30.17 ] } },
{ "type": "Feature", "properties": { "id": "stl_saple", "name": "Saple", "settlement_type": null, "country_id": "country_larx", "region_id": null, "state_id": null, "capital_status": null, "population": "18000", "status": null, "port": false, "wiki_id": null, "label_rank": null, "notes": null, "max_zoom": 8, "min_zoom": 5 }, "geometry": { "type": "Point", "coordinates": [ 33.34, -34.15 ] } },
{ "type": "Feature", "properties": { "id": "stl_hilmore", "name": "Hilmore", "settlement_type": null, "country_id": "country_grandhilmore", "region_id": null, "state_id": null, "capital_status": null, "population": "21500", "status": null, "port": false, "wiki_id": null, "label_rank": null, "notes": null, "max_zoom": 8, "min_zoom": 5 }, "geometry": { "type": "Point", "coordinates": [ 31.01, -35.1 ] } },
{ "type": "Feature", "properties": { "id": "stl_towboketer", "name": "Towboketer", "settlement_type": null, "country_id": "country_evehilmore", "region_id": null, "state_id": null, "capital_status": null, "population": "13700", "status": null, "port": false, "wiki_id": null, "label_rank": null, "notes": null, "max_zoom": 8, "min_zoom": 5 }, "geometry": { "type": "Point", "coordinates": [ 36.0702, -39.8043 ] } },
{ "type": "Feature", "properties": { "id": "stl_sapletown", "name": "Saple Town", "settlement_type": null, "country_id": "country_saple", "region_id": null, "state_id": null, "capital_status": null, "population": "8013", "status": null, "port": false, "wiki_id": null, "label_rank": null, "notes": null, "max_zoom": 8, "min_zoom": 5 }, "geometry": { "type": "Point", "coordinates": [ 48.4443, -49.2336 ] } },
{ "type": "Feature", "properties": { "id": "stl_worths", "name": "Worths", "settlement_type": null, "country_id": "country_sapleislands", "region_id": null, "state_id": null, "capital_status": null, "population": "3500", "status": null, "port": false, "wiki_id": null, "label_rank": null, "notes": null, "max_zoom": 8, "min_zoom": 4 }, "geometry": { "type": "Point", "coordinates": [ 46.25, -51.05 ] } },
{ "type": "Feature", "properties": { "id": "stl_paz", "name": "Paz", "settlement_type": null, "country_id": "country_reddelstone", "region_id": null, "state_id": null, "capital_status": null, "population": "18500", "status": null, "port": false, "wiki_id": null, "label_rank": null, "notes": null, "max_zoom": 8, "min_zoom": 4 }, "geometry": { "type": "Point", "coordinates": [ 34.2324, 9.3492 ] } },
{ "type": "Feature", "properties": { "id": "stl_hautspeej", "name": "Hautspeej", "settlement_type": null, "country_id": "country_duvessa", "region_id": null, "state_id": null, "capital_status": null, "population": "3500", "status": null, "port": false, "wiki_id": null, "label_rank": null, "notes": null, "max_zoom": 8, "min_zoom": 5 }, "geometry": { "type": "Point", "coordinates": [ -22.68, 15.35 ] } },
{ "type": "Feature", "properties": { "id": "stl_northdockintake", "name": "North Dock Intake", "settlement_type": null, "country_id": "country_duvessa", "region_id": null, "state_id": null, "capital_status": null, "population": "70000", "status": null, "port": false, "wiki_id": null, "label_rank": null, "notes": null, "max_zoom": 8, "min_zoom": 4 }, "geometry": { "type": "Point", "coordinates": [ -37.03, 16.33 ] } },
{ "type": "Feature", "properties": { "id": "stl_grainway6", "name": "Grainway 6", "settlement_type": null, "country_id": "country_duvessa", "region_id": null, "state_id": null, "capital_status": null, "population": "6500", "status": null, "port": false, "wiki_id": null, "label_rank": null, "notes": null, "max_zoom": 8, "min_zoom": 5 }, "geometry": { "type": "Point", "coordinates": [ -42.83, 15.55 ] } },
{ "type": "Feature", "properties": { "id": "stl_portmoa", "name": "Port Moa", "settlement_type": null, "country_id": "country_duvessa", "region_id": null, "state_id": null, "capital_status": null, "population": "120000", "status": null, "port": false, "wiki_id": null, "label_rank": null, "notes": null, "max_zoom": 8, "min_zoom": 4 }, "geometry": { "type": "Point", "coordinates": [ -44.7, 14.4 ] } },
{ "type": "Feature", "properties": { "id": "stl_fort32", "name": "Fort 32", "settlement_type": null, "country_id": "country_duvessa", "region_id": null, "state_id": null, "capital_status": null, "population": "11500", "status": null, "port": false, "wiki_id": null, "label_rank": null, "notes": null, "max_zoom": 8, "min_zoom": 5 }, "geometry": { "type": "Point", "coordinates": [ -45.87, 15.7 ] } },
{ "type": "Feature", "properties": { "id": "stl_bulufalo", "name": "Bulufalo", "settlement_type": null, "country_id": "country_duvessa", "region_id": null, "state_id": null, "capital_status": null, "population": "950", "status": null, "port": false, "wiki_id": null, "label_rank": null, "notes": null, "max_zoom": 8, "min_zoom": 5 }, "geometry": { "type": "Point", "coordinates": [ -41.89, -2.62 ] } },
{ "type": "Feature", "properties": { "id": "stl_fortgotoku", "name": "Fort Gotoku", "settlement_type": null, "country_id": "country_duvessa", "region_id": null, "state_id": null, "capital_status": null, "population": "5500", "status": null, "port": false, "wiki_id": null, "label_rank": null, "notes": null, "max_zoom": 8, "min_zoom": 5 }, "geometry": { "type": "Point", "coordinates": [ -44.94, -3.37 ] } },
{ "type": "Feature", "properties": { "id": "stl_sanceibei", "name": "Sanceibei", "settlement_type": null, "country_id": "country_obetoku", "region_id": null, "state_id": null, "capital_status": null, "population": "71049", "status": null, "port": false, "wiki_id": null, "label_rank": null, "notes": null, "max_zoom": 8, "min_zoom": 4 }, "geometry": { "type": "Point", "coordinates": [ -42.32, -14.02 ] } },
{ "type": "Feature", "properties": { "id": "stl_totoku", "name": "Totoku", "settlement_type": null, "country_id": "country_totoku", "region_id": null, "state_id": null, "capital_status": null, "population": "33500", "status": null, "port": false, "wiki_id": null, "label_rank": null, "notes": null, "max_zoom": 8, "min_zoom": 4 }, "geometry": { "type": "Point", "coordinates": [ -41.11, -13.12 ] } },
{ "type": "Feature", "properties": { "id": "stl_ornerston", "name": "Ornerston", "settlement_type": null, "country_id": "country_endotoku", "region_id": null, "state_id": null, "capital_status": null, "population": "56000", "status": null, "port": false, "wiki_id": null, "label_rank": null, "notes": null, "max_zoom": 8, "min_zoom": 4 }, "geometry": { "type": "Point", "coordinates": [ -41.08, -12.72 ] } },
{ "type": "Feature", "properties": { "id": "stl_dudbury", "name": "Dudbury", "settlement_type": null, "country_id": "country_totoku", "region_id": null, "state_id": null, "capital_status": null, "population": "22000", "status": null, "port": false, "wiki_id": null, "label_rank": null, "notes": null, "max_zoom": 8, "min_zoom": 4 }, "geometry": { "type": "Point", "coordinates": [ -35.577, -9.5544 ] } },
{ "type": "Feature", "properties": { "id": "stl_retrinch", "name": "Retrinch", "settlement_type": null, "country_id": "country_bibishirif", "region_id": null, "state_id": null, "capital_status": null, "population": "1000", "status": null, "port": false, "wiki_id": null, "label_rank": null, "notes": null, "max_zoom": 8, "min_zoom": 5 }, "geometry": { "type": "Point", "coordinates": [ -30.49, -8.86 ] } },
{ "type": "Feature", "properties": { "id": "stl_winchbridbu", "name": "Winchbridbu", "settlement_type": null, "country_id": "country_bibishirif", "region_id": null, "state_id": null, "capital_status": null, "population": "1000", "status": null, "port": false, "wiki_id": null, "label_rank": null, "notes": null, "max_zoom": 8, "min_zoom": 5 }, "geometry": { "type": "Point", "coordinates": [ -28.92, -9.4 ] } },
{ "type": "Feature", "properties": { "id": "stl_qasrmarcel", "name": "Qasr Marcel", "settlement_type": null, "country_id": "country_bibishirif", "region_id": null, "state_id": null, "capital_status": null, "population": "5100", "status": null, "port": false, "wiki_id": null, "label_rank": null, "notes": null, "max_zoom": 8, "min_zoom": 5 }, "geometry": { "type": "Point", "coordinates": [ -28.03, -8.81 ] } },
{ "type": "Feature", "properties": { "id": "stl_whitle", "name": "Whitle", "settlement_type": null, "country_id": "country_dudburia", "region_id": null, "state_id": null, "capital_status": null, "population": "43200", "status": null, "port": false, "wiki_id": null, "label_rank": null, "notes": null, "max_zoom": 8, "min_zoom": 4 }, "geometry": { "type": "Point", "coordinates": [ -34.16, -19.82 ] } },
{ "type": "Feature", "properties": { "id": "stl_pipat", "name": "Pipat", "settlement_type": null, "country_id": "country_poempoon", "region_id": null, "state_id": null, "capital_status": null, "population": "7600", "status": null, "port": false, "wiki_id": null, "label_rank": null, "notes": null, "max_zoom": 8, "min_zoom": 5 }, "geometry": { "type": "Point", "coordinates": [ -33.47, -26.39 ] } },
{ "type": "Feature", "properties": { "id": "stl_thetbury", "name": "Thetbury", "settlement_type": null, "country_id": "country_samariland", "region_id": null, "state_id": null, "capital_status": null, "population": "80000", "status": null, "port": false, "wiki_id": null, "label_rank": null, "notes": null, "max_zoom": 8, "min_zoom": 4 }, "geometry": { "type": "Point", "coordinates": [ -31.47, -26.52 ] } },
{ "type": "Feature", "properties": { "id": "stl_dotap", "name": "Dotap", "settlement_type": null, "country_id": "country_ronobetu", "region_id": null, "state_id": null, "capital_status": null, "population": "72000", "status": null, "port": false, "wiki_id": null, "label_rank": null, "notes": null, "max_zoom": 8, "min_zoom": 4 }, "geometry": { "type": "Point", "coordinates": [ -55.27, 7.55 ] } },
{ "type": "Feature", "properties": { "id": "stl_tachiawa", "name": "Tachiawa", "settlement_type": null, "country_id": "country_ronobetu", "region_id": null, "state_id": null, "capital_status": null, "population": "8935", "status": null, "port": false, "wiki_id": null, "label_rank": null, "notes": null, "max_zoom": 8, "min_zoom": 5 }, "geometry": { "type": "Point", "coordinates": [ -60.02, 8.87 ] } },
{ "type": "Feature", "properties": { "id": "stl_cliford", "name": "Cliford", "settlement_type": null, "country_id": "country_tsutodo", "region_id": null, "state_id": null, "capital_status": null, "population": "50000", "status": null, "port": false, "wiki_id": null, "label_rank": null, "notes": null, "max_zoom": 8, "min_zoom": 4 }, "geometry": { "type": "Point", "coordinates": [ -55.56, 0.85 ] } },
{ "type": "Feature", "properties": { "id": "stl_clitham", "name": "Clitham", "settlement_type": null, "country_id": "country_ronobetu", "region_id": null, "state_id": null, "capital_status": null, "population": "8500", "status": null, "port": false, "wiki_id": null, "label_rank": null, "notes": null, "max_zoom": 8, "min_zoom": 5 }, "geometry": { "type": "Point", "coordinates": [ -55.15, -3.39 ] } },
{ "type": "Feature", "properties": { "id": "stl_dimaeta", "name": "Dima Eta", "settlement_type": null, "country_id": "country_stsutodo", "region_id": null, "state_id": null, "capital_status": null, "population": "100000", "status": null, "port": false, "wiki_id": null, "label_rank": null, "notes": null, "max_zoom": 8, "min_zoom": 4 }, "geometry": { "type": "Point", "coordinates": [ -64.14, -17.49 ] } },
{ "type": "Feature", "properties": { "id": "stl_khn", "name": "Khn", "settlement_type": null, "country_id": null, "region_id": null, "state_id": null, "capital_status": null, "population": "5000", "status": null, "port": false, "wiki_id": null, "label_rank": null, "notes": null, "max_zoom": 8, "min_zoom": 5 }, "geometry": { "type": "Point", "coordinates": [ 52.64, 2.01 ] } },
{ "type": "Feature", "properties": { "id": "stl_flordclif", "name": "Flord-Clif", "settlement_type": null, "country_id": "country_hav", "region_id": null, "state_id": null, "capital_status": null, "population": "25775", "status": null, "port": false, "wiki_id": null, "label_rank": null, "notes": null, "max_zoom": 8, "min_zoom": 4 }, "geometry": { "type": "Point", "coordinates": [ -64.44, -22.3 ] } },
{ "type": "Feature", "properties": { "id": "stl_monch", "name": "Monch", "settlement_type": null, "country_id": "country_hav", "region_id": null, "state_id": null, "capital_status": null, "population": "3100", "status": null, "port": false, "wiki_id": null, "label_rank": null, "notes": null, "max_zoom": 8, "min_zoom": 5 }, "geometry": { "type": "Point", "coordinates": [ -50.6628, -35.1774 ] } },
{ "type": "Feature", "properties": { "id": "stl_klek", "name": "Klek", "settlement_type": null, "country_id": null, "region_id": null, "state_id": null, "capital_status": null, "population": "800", "status": null, "port": false, "wiki_id": null, "label_rank": null, "notes": null, "max_zoom": 8, "min_zoom": 5 }, "geometry": { "type": "Point", "coordinates": [ -67.6296, -24.9786 ] } }
]
}
