{
"type": "FeatureCollection",
"name": "settlements_points",
"crs": { "type": "name", "properties": { "name": "urn:ogc:def:crs:OGC:1.3:CRS84" } },
"features": [
{ "type": "Feature", "properties": { "id": "stl_gunsey", "name": "Gunsey", "settlement_type": null, "country_id": "country_velu", "region_id": null, "state_id": null, "capital_status": null, "population": "800", "status": null, "port": false, "wiki_id": null, "label_rank": null, "notes": null, "max_zoom": 8, "min_zoom": 4 }, "geometry": { "type": "Point", "coordinates": [ -3.671682519870166, 29.713566359033063 ] } },
{ "type": "Feature", "properties": { "id": "stl_gategenesis", "name": "Gate Genesis", "settlement_type": null, "country_id": "country_velu", "region_id": null, "state_id": null, "capital_status": null, "population": "1000", "status": null, "port": false, "wiki_id": null, "label_rank": null, "notes": null, "max_zoom": 8, "min_zoom": 4 }, "geometry": { "type": "Point", "coordinates": [ 1.108807465167993, 26.719852118588111 ] } },
{ "type": "Feature", "properties": { "id": "stl_gatethaurin", "name": "Gate Thaurin", "settlement_type": null, "country_id": "country_velu", "region_id": null, "state_id": null, "capital_status": null, "population": "23340", "status": null, "port": false, "wiki_id": null, "label_rank": null, "notes": null, "max_zoom": 8, "min_zoom": 4 }, "geometry": { "type": "Point", "coordinates": [ 2.16, 23.4 ] } },
{ "type": "Feature", "properties": { "id": "stl_bigbay", "name": "Big Bay", "settlement_type": null, "country_id": "country_velu", "region_id": null, "state_id": null, "capital_status": null, "population": "75000", "status": null, "port": false, "wiki_id": null, "label_rank": null, "notes": null, "max_zoom": 8, "min_zoom": 4 }, "geometry": { "type": "Point", "coordinates": [ 35.73, 11.97 ] } },
{ "type": "Feature", "properties": { "id": "stl_gatesmetts", "name": "Gate Smetts", "settlement_type": null, "country_id": "country_velu", "region_id": null, "state_id": null, "capital_status": null, "population": "810", "status": null, "port": false, "wiki_id": null, "label_rank": null, "notes": null, "max_zoom": 8, "min_zoom": 4 }, "geometry": { "type": "Point", "coordinates": [ 7.261459118098261, 16.265 ] } },
{ "type": "Feature", "properties": { "id": "stl_gateyorn", "name": "Gate Yorn", "settlement_type": null, "country_id": "country_velu", "region_id": null, "state_id": null, "capital_status": null, "population": "940", "status": null, "port": false, "wiki_id": null, "label_rank": null, "notes": null, "max_zoom": 8, "min_zoom": 4 }, "geometry": { "type": "Point", "coordinates": [ 12.87, 11.97 ] } },
{ "type": "Feature", "properties": { "id": "stl_gatedorn", "name": "Gate Dorn", "settlement_type": null, "country_id": "country_velu", "region_id": null, "state_id": null, "capital_status": null, "population": "1330", "status": null, "port": false, "wiki_id": null, "label_rank": null, "notes": null, "max_zoom": 8, "min_zoom": 4 }, "geometry": { "type": "Point", "coordinates": [ 15.147474556482615, 7.161725098095358 ] } },
{ "type": "Feature", "properties": { "id": "stl_hawntai", "name": "Hawntai", "settlement_type": null, "country_id": "country_barrel", "region_id": null, "state_id": null, "capital_status": null, "population": "5000", "status": null, "port": false, "wiki_id": null, "label_rank": null, "notes": null, "max_zoom": 8, "min_zoom": 4 }, "geometry": { "type": "Point", "coordinates": [ 21.441604354803363, 2.156705788657485 ] } },
{ "type": "Feature", "properties": { "id": "stl_vir", "name": "Vir", "settlement_type": null, "country_id": null, "region_id": null, "state_id": null, "capital_status": null, "population": "80000", "status": null, "port": false, "wiki_id": null, "label_rank": null, "notes": null, "max_zoom": 8, "min_zoom": 4 }, "geometry": { "type": "Point", "coordinates": [ 21.617368705085621, 5.264960727039944 ] } },
{ "type": "Feature", "properties": { "id": "stl_cote_du_soleil", "name": "Côte du Soleil", "settlement_type": null, "country_id": "country_duvessa", "region_id": null, "state_id": null, "capital_status": null, "population": "1100000", "status": null, "port": false, "wiki_id": null, "label_rank": null, "notes": null, "max_zoom": 8, "min_zoom": 3 }, "geometry": { "type": "Point", "coordinates": [ -22.084523280786325, 11.789356483099064 ] } },
{ "type": "Feature", "properties": { "id": "stl_zayn_al_qamar", "name": "Zayn al-Qamar", "settlement_type": null, "country_id": "country_bibishirif", "region_id": null, "state_id": null, "capital_status": null, "population": "1999900", "status": null, "port": false, "wiki_id": null, "label_rank": null, "notes": null, "max_zoom": 8, "min_zoom": 3 }, "geometry": { "type": "Point", "coordinates": [ -31.308471769598302, -6.419049147833379 ] } },
{ "type": "Feature", "properties": { "id": "stl_henna_city", "name": "Henna City", "settlement_type": null, "country_id": "country_soumoa", "region_id": null, "state_id": null, "capital_status": null, "population": "1150000", "status": null, "port": false, "wiki_id": null, "label_rank": null, "notes": null, "max_zoom": 8, "min_zoom": 3 }, "geometry": { "type": "Point", "coordinates": [ -43.41958231091224, 3.150122870958431 ] } },
{ "type": "Feature", "properties": { "id": "stl_cam_tower", "name": "Cam Tower", "settlement_type": null, "country_id": "country_ronobetu", "region_id": null, "state_id": null, "capital_status": null, "population": "1050000", "status": null, "port": false, "wiki_id": null, "label_rank": null, "notes": null, "max_zoom": 8, "min_zoom": 3 }, "geometry": { "type": "Point", "coordinates": [ -68.166658487297923, -4.819246535796766 ] } },
{ "type": "Feature", "properties": { "id": "stl_qaria", "name": "Qaria", "settlement_type": null, "country_id": "country_landofwater", "region_id": null, "state_id": null, "capital_status": null, "population": "900000", "status": null, "port": false, "wiki_id": null, "label_rank": null, "notes": null, "max_zoom": 8, "min_zoom": 3 }, "geometry": { "type": "Point", "coordinates": [ 35.04867115329094, -24.70892988596998 ] } },
{ "type": "Feature", "properties": { "id": "stl_levilbury", "name": "Levilbury", "settlement_type": null, "country_id": "country_samariland", "region_id": null, "state_id": null, "capital_status": null, "population": "800000", "status": null, "port": false, "wiki_id": null, "label_rank": null, "notes": null, "max_zoom": 8, "min_zoom": 4 }, "geometry": { "type": "Point", "coordinates": [ -24.15, -9.54 ] } },
{ "type": "Feature", "properties": { "id": "stl_portsable", "name": "Port Sable", "settlement_type": null, "country_id": "country_duvessa", "region_id": null, "state_id": null, "capital_status": null, "population": "110000", "status": null, "port": false, "wiki_id": null, "label_rank": null, "notes": null, "max_zoom": 8, "min_zoom": 4 }, "geometry": { "type": "Point", "coordinates": [ -11.946957061508861, 28.755346074062587 ] } },
{ "type": "Feature", "properties": { "id": "stl_portregret", "name": "Port Regret", "settlement_type": null, "country_id": "country_duvessa", "region_id": null, "state_id": null, "capital_status": null, "population": "200", "status": null, "port": false, "wiki_id": null, "label_rank": null, "notes": null, "max_zoom": 8, "min_zoom": 5 }, "geometry": { "type": "Point", "coordinates": [ -17.683832667127724, 21.978093772707574 ] } }
]
}
