{
"type": "FeatureCollection",
"name": "settlements_points",
"crs": { "type": "name", "properties": { "name": "urn:ogc:def:crs:OGC:1.3:CRS84" } },
"features": [
{ "type": "Feature", "properties": { "id": null, "name": "Gunsey", "settlement_type": null, "country_id": "country_velu", "region_id": null, "state_id": null, "capital_status": null, "population": null, "status": null, "port": false, "wiki_id": null, "label_rank": null, "zoom_min": null, "notes": null }, "geometry": { "type": "Point", "coordinates": [ -3.671682519870166, 29.713566359033063 ] } },
{ "type": "Feature", "properties": { "id": null, "name": "Gate Genesis", "settlement_type": null, "country_id": "country_velu", "region_id": null, "state_id": null, "capital_status": null, "population": null, "status": null, "port": false, "wiki_id": null, "label_rank": null, "zoom_min": null, "notes": null }, "geometry": { "type": "Point", "coordinates": [ 1.108807465167993, 26.719852118588111 ] } },
{ "type": "Feature", "properties": { "id": null, "name": "Gate Thaurin", "settlement_type": null, "country_id": "country_velu", "region_id": null, "state_id": null, "capital_status": null, "population": null, "status": null, "port": false, "wiki_id": null, "label_rank": null, "zoom_min": null, "notes": null }, "geometry": { "type": "Point", "coordinates": [ 2.16, 23.4 ] } },
{ "type": "Feature", "properties": { "id": null, "name": "Big Bay", "settlement_type": null, "country_id": "country_velu", "region_id": null, "state_id": null, "capital_status": null, "population": null, "status": null, "port": false, "wiki_id": null, "label_rank": null, "zoom_min": null, "notes": null }, "geometry": { "type": "Point", "coordinates": [ 35.73, 11.97 ] } },
{ "type": "Feature", "properties": { "id": null, "name": "Gate Smetts", "settlement_type": null, "country_id": "country_velu", "region_id": null, "state_id": null, "capital_status": null, "population": null, "status": null, "port": false, "wiki_id": null, "label_rank": null, "zoom_min": null, "notes": null }, "geometry": { "type": "Point", "coordinates": [ 7.261459118098261, 16.265 ] } },
{ "type": "Feature", "properties": { "id": null, "name": "Gate Yorn", "settlement_type": null, "country_id": "country_velu", "region_id": null, "state_id": null, "capital_status": null, "population": null, "status": null, "port": false, "wiki_id": null, "label_rank": null, "zoom_min": null, "notes": null }, "geometry": { "type": "Point", "coordinates": [ 12.87, 11.97 ] } },
{ "type": "Feature", "properties": { "id": null, "name": "Gate Dorn", "settlement_type": null, "country_id": "country_velu", "region_id": null, "state_id": null, "capital_status": null, "population": null, "status": null, "port": false, "wiki_id": null, "label_rank": null, "zoom_min": null, "notes": null }, "geometry": { "type": "Point", "coordinates": [ 15.147474556482615, 7.161725098095358 ] } },
{ "type": "Feature", "properties": { "id": null, "name": "Hawntai", "settlement_type": null, "country_id": "country_barrel", "region_id": null, "state_id": null, "capital_status": null, "population": null, "status": null, "port": false, "wiki_id": null, "label_rank": null, "zoom_min": null, "notes": null }, "geometry": { "type": "Point", "coordinates": [ 21.441604354803363, 2.156705788657485 ] } },
{ "type": "Feature", "properties": { "id": null, "name": "Vir", "settlement_type": null, "country_id": null, "region_id": null, "state_id": null, "capital_status": null, "population": null, "status": null, "port": false, "wiki_id": null, "label_rank": null, "zoom_min": null, "notes": null }, "geometry": { "type": "Point", "coordinates": [ 21.617368705085621, 5.264960727039944 ] } }
]
}
